City_ID,City,Lat,Lng,Max Temp,Humidity,Cloudiness,Wind Speed,Country,Date
0,Hawaiian Paradise Park,19.5933,-154.9731,78.31,94,100,9.22,US,1697176900
1,Hermanus,-34.4187,19.2345,57.43,68,1,3.94,ZA,1697176901
2,Utrik,11.2278,169.8474,82.78,77,47,11.23,MH,1697176901
3,Varberg,57.1056,12.2508,53.06,73,55,17.45,SE,1697176901
4,Port-aux-Français,-49.35,70.2167,37.51,74,88,21.56,TF,1697176901
5,Villa Gesell,-37.2639,-56.973,42.22,76,0,11.45,AR,1697176901
6,Adamstown,-25.066,-130.1015,69.53,69,93,11.07,PN,1697176901
7,Puerto Natales,-51.7236,-72.4875,39.7,96,58,6.82,CL,1697176610
8,Kashgar,39.4547,75.9797,67.21,22,75,6.71,CN,1697176902
9,Kailua-Kona,19.6406,-155.9956,77.5,89,10,4.0,US,1697176902
10,Hammerfest,70.6634,23.6821,32.45,93,40,2.3,NO,1697176902
11,Uttarkāshi,30.7333,78.45,79.65,44,0,6.58,IN,1697176902
12,Shenjiamen,29.9576,122.298,69.42,77,95,7.49,CN,1697176903
13,Hultsfred,57.4882,15.8436,41.13,95,28,5.88,SE,1697176903
14,Bocanda,7.0626,-4.4995,71.82,97,100,1.36,CI,1697176903
15,Anadyr,64.75,177.4833,37.9,86,75,13.42,RU,1697176903
16,Waalre,51.3867,5.4444,64.76,81,75,12.66,NL,1697176903
17,Kyzyl-Mazhalyk,51.1333,90.6,59.05,38,97,1.95,RU,1697176903
18,Happy Valley-Goose Bay,53.3168,-60.3315,48.51,93,100,11.5,CA,1697176904
19,Singaparna,-7.3515,108.111,91.11,36,100,7.65,ID,1697176904
20,Talagutong,6.2644,125.6678,83.82,76,89,7.02,PH,1697176904
21,Tiksi,71.6872,128.8694,23.67,95,100,3.31,RU,1697176904
22,Dudinka,69.4058,86.1778,34.68,93,97,15.01,RU,1697176904
23,Blackmans Bay,-43.0167,147.3167,59.13,57,85,1.99,AU,1697176904
24,Entroncamento,39.4667,-8.4667,67.41,62,99,2.89,PT,1697176905
25,Edinburgh of the Seven Seas,-37.0676,-12.3116,55.36,86,99,12.03,SH,1697176905
26,Avarua,-21.2078,-159.775,73.45,83,75,2.3,CK,1697176906
27,Den Burg,53.0542,4.7972,64.36,93,75,26.46,NL,1697176906
28,Kruisfontein,-34.0033,24.7314,55.92,93,75,24.7,ZA,1697176906
29,Afaahiti,-17.75,-149.2833,78.67,83,15,16.84,PF,1697176906
30,Tshabong,-26.05,22.45,62.44,28,1,8.86,BW,1697176906
31,Tual,-5.6667,132.75,81.27,82,48,11.7,ID,1697176906
32,Waitangi,-43.9535,-176.5597,52.83,84,100,5.99,NZ,1697176907
33,Albany,42.6001,-73.9662,46.35,86,24,5.61,US,1697176779
34,Whitehorse,60.7161,-135.0538,45.37,88,100,17.27,CA,1697176773
35,Queenstown,-31.8976,26.8753,57.16,56,0,15.79,ZA,1697176907
36,Nova Viçosa,-17.8919,-39.3719,73.72,86,14,13.35,BR,1697176907
37,Badger,64.8,-147.5333,24.39,92,68,5.37,US,1697176907
38,Isafjordur,66.0755,-23.124,29.26,88,100,20.71,IS,1697176907
39,Bredasdorp,-34.5322,20.0403,57.15,72,0,4.07,ZA,1697176811
40,Saipan,15.1355,145.701,83.37,84,100,17.81,MP,1697176907
41,Grytviken,-54.2811,-36.5092,25.5,80,97,4.07,GS,1697176908
42,Pacific Grove,36.6177,-121.9166,58.01,76,87,3.0,US,1697176908
43,Ushuaia,-54.8,-68.3,44.26,76,40,27.63,AR,1697176857
44,Olonkinbyen,70.9221,-8.7187,30.25,84,96,22.59,SJ,1697176908
45,Port Alfred,-33.5906,26.891,65.17,76,6,8.99,ZA,1697176908
46,Sant Lluís,39.8526,4.2594,68.4,100,20,2.3,ES,1697176908
47,Longyearbyen,78.2186,15.6401,30.04,74,75,11.5,SJ,1697176667
48,Yeed,4.55,43.0333,82.54,62,11,7.58,SO,1697176909
49,Fort McMurray,56.7268,-111.381,47.71,76,0,3.44,CA,1697176745
50,Lompoc,34.6391,-120.4579,55.58,94,20,4.61,US,1697176909
51,Polyarny,69.1989,33.4478,39.29,72,100,17.29,RU,1697176909
52,Bethel,41.3712,-73.414,53.76,80,20,1.01,US,1697176751
53,Stanley,54.868,-1.6985,47.79,92,20,3.44,GB,1697176686
54,Morehead City,34.7229,-76.726,61.0,97,0,3.44,US,1697176686
55,Uturoa,-16.7333,-151.4333,78.89,77,17,16.26,PF,1697176910
56,Atafu Village,-8.5421,-172.5159,83.19,80,100,21.63,TK,1697176910
57,Nagqu Prefecture,31.5,92.0,39.31,13,1,7.4,CN,1697176910
58,Penzance,50.1186,-5.5371,63.28,90,100,26.42,GB,1697176887
59,Port Mathurin,-19.6833,63.4167,73.8,80,33,8.55,MU,1697176911
60,Kudahuvadhoo,2.6708,72.8944,82.47,69,50,11.68,MV,1697176832
61,Invercargill,-46.4,168.35,65.01,50,30,11.99,NZ,1697176849
62,Petropavlovsk-Kamchatskiy,53.0452,158.6483,43.39,73,20,15.01,RU,1697176911
63,Puerto Santa,-8.9906,-78.6456,63.91,89,70,7.47,PE,1697176911
64,Alo,7.4178,6.7371,75.22,96,100,2.8,NG,1697176911
65,Oodweyne,9.4092,45.064,79.25,53,6,5.57,SO,1697176911
66,Coquimbo,-29.9533,-71.3436,55.13,94,0,4.61,CL,1697176814
67,Iqaluit,63.7506,-68.5145,29.93,86,75,4.61,CA,1697176912
68,Talnakh,69.4865,88.3972,29.21,94,100,5.66,RU,1697176912
69,Alice Springs,-23.7,133.8833,83.75,11,0,13.8,AU,1697176772
70,Puducherry,11.9333,79.8167,86.92,62,74,7.16,IN,1697176912
71,Kokopo,-4.352,152.2633,81.25,83,99,8.34,PG,1697176912
72,Pisco,-13.7,-76.2167,64.45,82,0,5.75,PE,1697176912
73,Nizhneangarsk,55.7833,109.55,44.01,81,96,1.01,RU,1697176912
74,Ust-Tsilma,65.441,52.1498,36.61,96,100,8.01,RU,1697176913
75,Chonchi,-42.6128,-73.8092,43.12,94,30,2.73,CL,1697176913
76,Ati,13.2154,18.3353,87.57,40,75,4.21,TD,1697176913
77,Port Blair,11.6667,92.75,87.84,70,40,4.61,IN,1697176914
78,Zagora,30.3484,-5.8365,67.39,36,6,2.51,MA,1697176914
79,Mata-Utu,-13.2816,-176.1745,81.41,84,33,19.13,WF,1697176915
80,Codrington,-38.2667,141.9667,57.15,79,100,14.74,AU,1697176809
81,Haiku-Pauwela,20.9219,-156.3051,77.04,85,17,8.01,US,1697176915
82,Lā‘ie,21.6477,-157.9253,79.11,75,1,5.99,US,1697176915
83,Bad Soden am Taunus,50.1408,8.5045,63.48,92,20,2.3,DE,1697176915
84,Bilibino,68.0546,166.4372,19.96,90,100,3.69,RU,1697176915
85,Amalāpuram,16.5833,82.0167,92.48,48,10,4.25,IN,1697176916
86,Taulaga,-11.0553,-171.0883,82.47,80,40,19.89,AS,1697176916
87,Aswān,24.0934,32.907,72.7,40,0,11.5,EG,1697176916
88,San Antonio de Palé,-1.4014,5.6325,78.24,81,97,12.46,GQ,1697176917
89,Wingham,43.8879,-81.3114,41.49,91,93,4.79,CA,1697176917
90,Port Elizabeth,-33.918,25.5701,62.31,89,40,19.57,ZA,1697176917
91,Cumana,10.4635,-64.1775,80.04,79,7,6.78,VE,1697176917
92,Mount Isa,-20.7333,139.5,94.77,13,49,13.8,AU,1697176917
93,Vorgashor,67.5833,63.95,33.35,61,100,14.36,RU,1697176917
94,Melfort,52.8667,-104.6177,42.93,81,69,1.14,CA,1697176918
95,Enriquillo,17.9,-71.2333,79.99,89,81,7.56,DO,1697176918
96,Yellowknife,62.456,-114.3525,45.41,100,100,6.91,CA,1697176887
97,Port Lincoln,-34.7333,135.8667,62.6,63,17,16.04,AU,1697176918
98,Arteche,12.2645,125.4048,84.42,76,58,3.96,PH,1697176918
99,Mejit,10.2753,170.8646,82.81,76,95,9.17,MH,1697176919
100,Wailua Homesteads,22.0669,-159.378,77.43,82,5,9.51,US,1697176919
101,Dalandzadgad,43.5708,104.425,63.73,14,0,14.92,MN,1697176919
102,Garissa,-0.4536,39.6401,83.71,59,100,13.38,KE,1697176919
103,Vershino-Darasunskiy,52.35,115.5167,57.42,34,37,9.62,RU,1697176919
104,Luanda,-8.8368,13.2343,75.2,88,75,5.75,AO,1697176645
105,Bubaque,11.2833,-15.8333,81.99,75,100,1.25,GW,1697176919
106,Lebu,-37.6167,-73.65,47.34,89,8,16.73,CL,1697176919
107,Ramón Castilla,-4.2569,-69.9594,77.25,94,0,0.0,PE,1697176920
108,Papatowai,-46.5619,169.4708,60.58,53,24,11.23,NZ,1697176920
109,Thompson,55.7435,-97.8558,37.56,93,0,3.44,CA,1697176901
110,Klyuchi,52.2667,79.1667,50.07,35,19,6.53,RU,1697176920
111,San Patricio,28.017,-97.5169,80.46,93,0,6.58,US,1697176920
112,Kachug,53.9606,105.8817,69.04,46,98,5.01,RU,1697176920
113,Ola,59.5833,151.2833,28.42,44,2,3.51,RU,1697176920
114,Tabou,4.423,-7.3528,76.5,91,96,3.78,CI,1697176921
115,Ribeira Grande,38.5167,-28.7,65.77,86,100,7.0,PT,1697176921
116,Kankauli,16.2667,73.7,92.5,47,45,4.74,IN,1697176921
117,Vertientes,21.2594,-78.1464,77.04,90,100,1.97,CU,1697176921
118,West Island,-12.1568,96.8225,82.38,69,75,19.57,CC,1697176921
119,Margaret River,-33.95,115.0667,71.53,49,0,11.86,AU,1697176921
120,Puerto Ayora,-0.7393,-90.3518,74.05,84,44,7.36,EC,1697176921
121,Vila Franca do Campo,37.7167,-25.4333,67.87,99,100,4.34,PT,1697176922
122,Luwuk,-0.9516,122.7875,86.05,63,67,8.9,ID,1697176922
123,Ilulissat,69.2167,-51.1,28.42,59,100,5.75,GL,1697176922
124,Udachny,66.4167,112.4,19.45,72,97,3.6,RU,1697176922
125,Kayangel,8.0823,134.7173,83.26,77,75,15.82,PW,1697176923
126,Arraial do Cabo,-22.9661,-42.0278,71.89,97,100,15.5,BR,1697176899
127,Ippy,6.2679,21.2247,68.56,96,100,6.08,CF,1697176923
128,Enewetak,11.3474,162.3373,83.61,67,53,10.67,MH,1697176923
129,Dankalwa,11.7443,12.1867,79.99,46,73,2.59,NG,1697176923
130,Praia da Vitória,38.7333,-27.0667,65.75,94,20,2.95,PT,1697176923
131,Bismarck,46.8083,-100.7837,43.66,81,40,16.11,US,1697176808
132,Tazovsky,67.4667,78.7,34.83,78,100,7.29,RU,1697176924
133,Souillac,-20.5167,57.5167,77.38,69,75,4.61,MU,1697176924
134,Hirara,24.8,125.2833,84.06,61,40,11.5,JP,1697176924
135,Srikakulam,18.3,83.9,88.29,57,8,4.21,IN,1697176924
136,Paka,4.6374,103.4368,93.13,62,20,3.44,MY,1697176924
137,Kingston,17.997,-76.7936,85.15,84,20,11.5,JM,1697176818
138,Tura,25.5198,90.2201,83.37,55,0,4.29,IN,1697176925
139,Okhotsk,59.3833,143.3,30.13,80,100,11.65,RU,1697176925
140,Hutchinson Island South,27.2995,-80.2205,83.08,89,75,3.0,US,1697176925
141,Jamestown,42.097,-79.2353,46.71,89,0,8.05,US,1697176666
142,Smithers,54.7804,-127.1743,39.52,100,20,0.0,CA,1697176819
143,Berezovyy,51.6667,135.7,60.93,44,95,13.15,RU,1697176925
144,Gombi,10.1614,12.7399,74.53,65,76,0.92,NG,1697176925
145,Flying Fish Cove,-10.4217,105.6791,82.08,78,100,12.66,CX,1697176925
146,Cologne,50.9333,6.95,66.74,90,40,10.36,DE,1697176648
147,Boa Vista,2.8197,-60.6733,84.18,61,0,4.61,BR,1697176861
148,Banda Aceh,5.5577,95.3222,82.76,77,93,5.55,ID,1697176926
149,Kinablangan,7.6947,126.5503,84.18,75,100,7.92,PH,1697176926
150,Teguise,29.0605,-13.564,71.82,38,0,8.05,ES,1697176926
151,Hadibu,12.65,54.0333,81.73,77,60,6.42,YE,1697176926
152,Belmonte,-15.8631,-38.8828,73.35,87,17,8.88,BR,1697176926
153,Bedelē,8.456,36.353,62.55,85,4,3.47,ET,1697176927
154,Iguape,-24.7081,-47.5553,66.78,92,100,12.77,BR,1697176927
155,Tugulym,57.0591,64.6425,39.33,74,100,14.23,RU,1697176927
156,Rongelap,11.1635,166.8941,83.01,74,69,8.37,MH,1697176927
157,Zeya,53.75,127.2667,56.48,48,86,5.66,RU,1697176927
158,Distrikt Brokopondo,4.75,-55.1667,77.63,81,24,8.12,SR,1697176927
159,Sarupathar,26.1984,93.8094,88.02,65,2,2.17,IN,1697176928
160,Aykhal,66.0,111.5,24.06,78,78,11.01,RU,1697176928
161,Wynyard,-41.0,145.7167,57.99,56,41,12.86,AU,1697176928
162,Mahina,-17.5065,-149.489,80.37,69,40,4.61,PF,1697176928
163,Severo-Yeniseyskiy,60.3725,93.0408,38.57,91,100,14.0,RU,1697176928
164,Kaédi,16.1465,-13.5047,86.49,53,88,6.87,MR,1697176928
165,Kumul,42.8,93.45,74.73,17,0,3.74,CN,1697176929
166,Baise City,23.8997,106.6133,73.15,83,100,1.21,CN,1697176929
167,Ed Damer,17.5928,33.9592,91.15,26,0,15.21,SD,1697176929
168,Igbara-Odo,7.5025,5.0626,70.61,95,100,2.08,NG,1697176929
169,Bikenibeu Village,1.3673,173.1241,87.76,70,40,3.44,KI,1697176929
170,Altay,47.8667,88.1167,67.26,27,96,5.91,CN,1697176929
171,Geraldton,-28.7667,114.6,93.61,17,1,20.71,AU,1697176930
172,Kapuskasing,49.4169,-82.4331,44.69,93,75,3.44,CA,1697176930
173,Mount Pearl,47.5166,-52.7813,53.33,99,100,4.61,CA,1697176930
174,Ilām,26.9167,87.9167,71.96,77,24,4.63,NP,1697176930
175,Yoko,5.5333,12.3167,65.01,98,66,2.24,CM,1697176930
176,Tileagd,47.0667,22.2,58.55,56,100,5.32,RO,1697176931
177,Saldanha,-33.0117,17.9442,48.25,69,9,1.81,ZA,1697176931
178,Buenaventura,3.8801,-77.0312,75.33,95,14,1.86,CO,1697176931
179,Mahabalipuram,12.6264,80.1722,89.06,62,66,7.65,IN,1697176931
180,Codajás,-3.8367,-62.0569,76.05,76,25,1.88,BR,1697176931
181,San Pedro Pochutla,15.7333,-96.4667,77.14,91,98,6.98,MX,1697176931
182,Kloulklubed,7.0419,134.2556,82.8,80,37,14.88,PW,1697176932
183,Lihue,21.9789,-159.3672,78.04,82,6,11.48,US,1697176932
184,Dobroslav,46.8194,30.9432,57.87,73,76,8.61,UA,1697176932
185,Lüderitz,-26.6481,15.1594,59.34,69,33,16.46,NA,1697176932
186,Iskateley,67.6803,53.1512,34.02,76,100,8.99,RU,1697176932
187,Ingeniero Jacobacci,-41.3427,-69.5448,50.83,39,72,8.55,AR,1697176932
188,Qaqortoq,60.7167,-46.0333,35.56,68,59,6.67,GL,1697176933
189,Amga,60.8953,131.9608,35.98,97,95,1.99,RU,1697176933
190,Malango,-2.9627,119.9001,80.24,61,73,3.27,ID,1697176933
191,Östersund,63.1792,14.6357,37.85,75,0,6.91,SE,1697176818
192,Verāval,20.9,70.3667,86.7,62,6,4.7,IN,1697176933
193,Coahuayana de Hidalgo,18.7,-103.6583,75.18,93,5,3.27,MX,1697176934
194,Hobyo,5.3505,48.5268,83.16,71,18,6.44,SO,1697176934
195,Kidal,18.4411,1.4078,81.46,15,32,7.65,ML,1697176934
196,Pemangkat,1.1667,108.9667,85.51,69,93,10.18,ID,1697176934
197,Urucará,-2.5364,-57.76,77.63,64,83,2.86,BR,1697176935
198,Lae,-6.7221,146.9847,81.97,80,33,7.11,PG,1697176935
199,Jequié,-13.8575,-40.0836,69.55,86,66,1.61,BR,1697176935
200,Assab,13.0092,42.7394,86.95,67,75,21.36,ER,1697176669
201,Poço Branco,-5.6228,-35.6628,75.15,95,18,6.91,BR,1697176936
202,Khandyga,62.6667,135.6,30.49,91,99,5.57,RU,1697176936
203,Macheng,31.1783,115.0319,73.54,55,95,6.24,CN,1697176936
204,La Santisima Trinidad,-14.8333,-64.9,74.79,89,56,3.78,BO,1697176936
205,Kapaa,22.0752,-159.319,78.78,82,5,10.8,US,1697176937
206,Gadzhiyevo,69.2551,33.3362,38.89,71,100,20.58,RU,1697176937
207,East London,-33.0153,27.9116,67.14,63,0,20.71,ZA,1697176851
208,Darhan,49.4867,105.9228,60.87,37,3,13.82,MN,1697176937
209,Laguna,38.421,-121.4238,64.38,62,0,0.0,US,1697176937
210,Kaitong,44.8135,123.15,70.39,35,9,7.85,CN,1697176938
211,Punta Arenas,-53.15,-70.9167,44.71,81,40,17.27,CL,1697176938
212,Keflavik,64.0049,-22.5624,37.31,69,75,26.46,IS,1697176938
213,Jishu,44.3167,126.8,66.9,34,0,6.04,CN,1697176938
214,Zhengjiatun,43.5064,123.5064,66.96,48,95,15.37,CN,1697176938
215,Rio Grande,-32.035,-52.0986,45.95,59,100,8.57,BR,1697176938
216,Whakatane,-37.9585,176.9854,62.89,82,0,4.94,NZ,1697176939
217,Chongwe,-15.3292,28.682,83.97,27,52,7.43,ZM,1697176939
218,Nanchong,30.7951,106.0847,69.67,66,100,3.04,CN,1697176939
219,Mount Gambier,-37.8333,140.7667,57.34,79,100,11.79,AU,1697176939
220,Ulsteinvik,62.3432,5.8487,50.9,79,100,14.58,NO,1697176939
221,Sinabang,2.4803,96.3801,81.34,80,92,8.39,ID,1697176939
222,La Sarre,48.8002,-79.1996,40.28,98,80,5.91,CA,1697176940
223,Sault Ste. Marie,46.5168,-84.3333,39.76,92,0,0.0,CA,1697176707
224,Diffa,13.3154,12.6113,85.21,30,32,7.72,NE,1697176940
225,La Passe,45.5549,-0.8967,62.98,53,15,13.27,FR,1697176940
226,Nuuk,64.1835,-51.7216,35.26,81,100,10.85,GL,1697176940
227,Ciudad Bolivar,8.1222,-63.5497,80.4,77,29,9.37,VE,1697176942
228,Taşköprü,41.5098,34.2141,56.05,43,0,2.53,TR,1697176944
229,Lautoka,-17.6167,177.4667,82.26,69,75,5.75,FJ,1697176944
230,Onguday,50.75,86.15,54.82,67,100,6.31,RU,1697176945
231,Ketchikan,55.3422,-131.6461,57.18,88,100,5.23,US,1697176945
232,Carnarvon,-24.8667,113.6333,88.84,37,26,10.42,AU,1697176945
233,Dori,14.0354,-0.0345,84.65,41,83,6.96,BF,1697176946
234,Antsiranana,-12.2787,49.2917,81.36,69,20,9.22,MG,1697176947
235,Estevan,49.1334,-102.9842,44.94,75,100,11.5,CA,1697176671
236,Griffith,41.5284,-87.4237,59.05,82,40,8.05,US,1697176948
237,Kununurra,-15.7667,128.7333,100.38,25,75,10.36,AU,1697176949
238,Moree,-29.4667,149.85,76.87,16,0,15.86,AU,1697176949
239,Tchamba,9.0333,1.4167,72.52,95,89,3.24,TG,1697176950
240,Christiana,-27.914,25.1611,57.9,49,0,1.39,ZA,1697176950
241,Hafar Al-Batin,28.4328,45.9708,84.78,21,0,5.75,SA,1697176950
242,New Norfolk,-42.7826,147.0587,60.3,61,88,9.26,AU,1697176951
243,Seaside,36.6111,-121.8516,59.92,74,0,8.05,US,1697176679
244,Salahonda,2.1019,-78.7217,78.46,84,47,5.75,CO,1697176951
245,Saint Paul Harbor,57.79,-152.4072,36.84,68,97,4.65,US,1697176951
246,Myeik,12.4333,98.6,84.47,75,100,3.71,MM,1697176951
247,Ust-Nera,64.5667,143.2,10.22,95,98,5.01,RU,1697176952
248,Elesbão Veloso,-6.2019,-42.1403,78.84,54,80,3.53,BR,1697176952
249,Ta`ū,-14.2336,-169.5144,80.49,81,34,17.65,AS,1697176952
250,Zhosaly,45.4878,64.0781,52.86,30,1,15.19,KZ,1697176953
251,Pariaman,-0.619,100.12,86.05,83,87,8.7,ID,1697176953
252,Hamilton,39.1834,-84.5333,60.44,76,0,3.0,US,1697176953
253,Callao,-12.0667,-77.15,65.71,77,40,11.5,PE,1697176954
254,Oulainen,64.2667,24.8,37.81,93,86,4.27,FI,1697176954
255,College,64.8569,-147.8028,24.48,94,64,5.28,US,1697176954
256,Fale old settlement,-9.3852,-171.2468,83.61,77,34,20.0,TK,1697176954
257,Touros,-5.1989,-35.4608,77.85,81,6,13.24,BR,1697176954
258,Aasiaat,68.7098,-52.8699,26.94,86,100,8.57,GL,1697176954
259,Labrador City,52.9463,-66.9114,42.71,93,100,3.44,CA,1697176810
260,Port Isabel,26.0734,-97.2086,77.02,84,0,1.01,US,1697176808
261,Piton Saint-Leu,-21.2196,55.3151,77.07,65,0,18.41,RE,1697176954
262,Conde,-7.2597,-34.9075,76.46,88,20,4.61,BR,1697176955
263,Tomatlán,19.9333,-105.25,72.99,95,0,2.62,MX,1697176955
264,Peace River,56.2501,-117.286,49.66,86,0,4.61,CA,1697176942
265,Pacasmayo,-7.4006,-79.5714,65.17,88,86,9.48,PE,1697176955
266,Esim,4.8699,-2.2405,75.02,91,99,3.65,GH,1697176955
267,Zelenchukskaya,43.858,41.5894,54.01,28,0,0.69,RU,1697176955
268,Mossamedes,-15.1961,12.1522,66.79,82,71,4.0,AO,1697176955
269,Raduzhny,62.0961,77.475,36.91,72,97,13.18,RU,1697176955
270,Sandnessjøen,66.0217,12.6316,37.51,93,75,2.3,NO,1697176956
271,Zungeru,9.8128,6.1558,75.18,86,99,0.6,NG,1697176956
272,As Sulayyil,20.4607,45.5779,82.65,17,0,6.98,SA,1697176956
273,Sabzawār,36.2126,57.6819,54.68,76,0,13.8,IR,1697176956
274,Lázaro Cárdenas,17.9583,-102.2,77.23,90,18,4.45,MX,1697176956
275,Mili,6.0815,171.735,83.89,72,50,4.72,MH,1697176956
276,Medina,24.4686,39.6142,84.63,14,0,3.44,SA,1697176957
277,Susuman,62.7833,148.1667,15.98,69,65,1.01,RU,1697176957
278,Chernyshevskiy,63.0128,112.4714,33.35,82,98,3.98,RU,1697176957
279,Murwāra,23.85,80.4,87.49,43,0,4.68,IN,1697176957
280,Berwick-Upon-Tweed,55.7833,-2.0,47.43,85,100,8.12,GB,1697176957
281,Ibiá,-19.4783,-46.5389,72.43,71,56,2.98,BR,1697176957
282,Hithadhoo,-0.6,73.0833,81.68,72,82,12.37,MV,1697176957
283,Nelson Bay,-32.7167,152.15,70.09,49,0,11.99,AU,1697176716
284,Portland,45.5234,-122.6762,64.38,63,0,17.27,US,1697176735
285,Magadan,59.5667,150.8,27.82,53,1,7.0,RU,1697176958
286,Vadakku Valliyūr,8.3833,77.65,86.72,61,79,5.93,IN,1697176958
287,Dunedin,-45.8742,170.5036,60.48,56,97,8.3,NZ,1697176958
288,Constanța,44.1833,28.65,56.08,60,14,7.96,RO,1697176958
289,Urangan,-25.3,152.9,72.09,72,0,19.13,AU,1697176958
290,Batang,-6.4846,110.7083,88.3,53,77,15.08,ID,1697176958
291,Cologne,50.9333,6.95,66.74,90,40,10.36,DE,1697176959
292,Tha Kham,9.1107,99.2321,93.42,64,20,11.99,TH,1697176959
293,Belyy Yar,53.6039,91.3903,46.29,71,40,11.18,RU,1697176959
294,Sabha,27.0377,14.4283,69.03,36,0,8.12,LY,1697176861
295,Howard Springs,-12.497,131.047,89.82,39,12,9.8,AU,1697176959
296,New Plymouth,-39.0667,174.0833,57.81,74,36,8.52,NZ,1697176889
297,Uvira,-3.4067,29.1458,80.56,59,71,4.61,CD,1697176959
298,Nyurba,63.2842,118.3319,26.11,47,68,6.44,RU,1697176959
299,Machico,32.7,-16.7667,82.71,53,40,2.3,PT,1697176960
300,Castillos,-34.1667,-53.8333,40.37,85,2,3.51,UY,1697176960
301,East Ballina,-28.8667,153.5833,72.81,66,20,13.56,AU,1697176960
302,Keningau,5.3378,116.1602,84.31,75,57,3.98,MY,1697176961
303,Lijiang,26.8688,100.2207,61.59,72,100,3.8,CN,1697176961
304,West Bay,19.3667,-81.4167,85.05,79,79,1.99,KY,1697176961
305,Caucayá,-0.1934,-74.7819,74.26,84,62,1.5,CO,1697176961
306,St. John's,47.5649,-52.7093,54.16,99,100,4.61,CA,1697176961
307,Quellón,-43.1167,-73.6167,44.38,82,42,4.14,CL,1697176961
308,George Town,5.4112,100.3354,91.33,74,20,9.22,MY,1697176891
309,Gizo Government Station,-8.103,156.8419,82.11,77,92,7.23,SB,1697176961
310,Weno,7.4515,151.8468,84.33,72,82,5.41,FM,1697176961
311,Bin Yauri,10.7823,4.8114,77.22,81,90,3.38,NG,1697176962
312,Malpe,13.35,74.7167,87.1,74,87,5.23,IN,1697176962
313,Realicó,-35.0366,-64.2447,43.41,38,0,8.81,AR,1697176962
314,Baymak,52.5933,58.3225,38.75,51,99,22.48,RU,1697176962
315,Lamu,-2.2717,40.902,82.62,74,70,8.61,KE,1697176962
316,Yuzhno-Kurilsk,44.0306,145.8556,61.38,57,0,7.11,RU,1697176962
317,Richfield,44.8833,-93.283,47.68,93,100,19.57,US,1697176930
318,Port Douglas,-16.4833,145.4667,76.42,66,52,7.76,AU,1697176963
319,Ruteng,-8.6136,120.4721,73.65,61,64,1.25,ID,1697176963
320,Geiselhöring,48.8333,12.3833,57.25,87,91,3.56,DE,1697176963
321,Al ‘Arīsh,31.1316,33.7984,75.74,65,0,3.53,EG,1697176963
322,Itaituba,-4.2761,-55.9836,77.29,70,32,0.18,BR,1697176902
323,Gaalkacyo,6.7697,47.4308,83.37,61,23,8.79,SO,1697176963
324,Mweka,-4.85,21.5667,78.44,62,19,3.51,CD,1697176963
325,Hilo,19.7297,-155.09,76.28,96,8,1.01,US,1697176963
326,Ismailia,30.6043,32.2723,68.07,88,0,5.75,EG,1697176964
327,Port Moresby,-9.4431,147.1797,74.62,94,75,3.44,PG,1697176964
328,Merizo Village,13.2658,144.6691,80.58,94,100,16.51,GU,1697176964
329,Abalak,58.1286,68.5944,38.35,82,100,13.44,RU,1697176964
330,Puerto Deseado,-47.7503,-65.8938,46.53,66,3,6.6,AR,1697176964
331,Nova Xavantina,-14.6667,-52.35,80.49,57,21,3.67,BR,1697176964
332,Craig,40.5153,-107.5464,35.55,75,20,3.44,US,1697176964
333,Chakari,-18.0629,29.8925,85.1,23,57,8.43,ZW,1697176964
334,Rémire-Montjoly,4.9167,-52.2667,77.04,88,20,0.0,GF,1697176965
335,Muskegon,43.3,-86.1334,48.78,89,100,9.22,US,1697176965
336,Mariehamn,60.0973,19.9348,44.82,93,0,1.14,AX,1697176965
337,Bouna,9.2667,-3.0,73.31,91,65,1.59,CI,1697176965
338,Gilleleje,56.122,12.3106,51.12,79,67,1.01,DK,1697176965
339,Malé,4.1748,73.5089,87.75,70,40,14.97,MV,1697176810
340,Kattivākkam,13.2167,80.3167,89.08,71,100,7.72,IN,1697176965
341,Wauchope,-31.45,152.7333,69.96,40,0,7.0,AU,1697176966
342,Bryne,58.7354,5.6477,52.99,85,75,20.71,NO,1697176966
343,Bab Ezzouar,36.7262,3.1829,64.38,72,0,2.3,DZ,1697176966
344,Carutapera,-1.195,-46.02,75.99,93,38,5.97,BR,1697176966
345,Chibougamau,49.9168,-74.3659,42.42,93,75,4.61,CA,1697176934
346,Tofol,5.3248,163.0078,83.46,73,60,6.8,FM,1697176966
347,Chapada dos Guimarães,-15.4606,-55.7497,74.86,63,48,1.1,BR,1697176967
348,Sitia,35.2,26.0986,69.98,71,52,6.91,GR,1697176967
349,Katsuren-haebaru,26.3369,127.8719,82.78,58,75,10.36,JP,1697176967
350,Houghton,47.1219,-88.569,43.79,98,34,6.76,US,1697176967
351,Fort St. John,56.2499,-120.8529,44.49,81,20,10.36,CA,1697176967
352,Bang Saphan,11.2126,99.5117,88.79,58,99,6.58,TH,1697176967
353,Plonéour-Lanvern,47.9,-4.2833,68.32,77,75,19.57,FR,1697176967
354,Ambrizette,-7.2312,12.8666,76.78,84,82,9.01,AO,1697176968
355,Comodoro Rivadavia,-45.8667,-67.5,48.06,43,0,4.61,AR,1697176968
356,Gualeguay,-33.1416,-59.3097,40.28,71,0,5.77,AR,1697176968
357,Zhangjiajie,29.1294,110.4783,59.68,95,100,1.45,CN,1697176968
358,Chenzhou,25.8,113.0333,71.55,69,64,6.38,CN,1697176948
359,Ruma,45.0081,19.8222,61.86,63,28,2.46,RS,1697176968
360,Necochea,-38.5473,-58.7368,42.78,73,1,9.8,AR,1697176968
361,Bowling Green,36.9903,-86.4436,66.34,66,32,4.63,US,1697176950
362,Camacupa,-12.0167,17.4833,70.81,60,27,3.18,AO,1697176968
363,Plouguerneau,48.6,-4.5,68.65,83,100,25.32,FR,1697176969
364,Santiago de Cao,-7.9589,-79.2392,64.53,88,77,8.05,PE,1697176875
365,Nieuw Amsterdam,5.8833,-55.0833,81.01,86,8,8.3,SR,1697176969
366,Saint-François,46.4154,3.9054,53.65,93,0,2.3,FR,1697176969
367,Selkirk,50.1436,-96.8845,46.47,83,81,7.14,CA,1697176969
368,Tsiombe,-25.3,45.4833,82.76,54,22,8.75,MG,1697176969
369,Mugia,43.1041,-9.2179,69.17,95,98,20.96,ES,1697176969
370,Hasaki,35.7333,140.8333,72.0,45,10,14.76,JP,1697176884
371,Kristiansund,63.1115,7.732,48.85,57,75,12.66,NO,1697176969
372,Okha,53.5739,142.9478,56.97,57,77,11.32,RU,1697176919
373,Upington,-28.4478,21.2561,52.18,76,0,4.61,ZA,1697176970
374,Tazacorte,28.629,-17.9293,72.57,88,0,5.75,ES,1697176970
375,Caetés,-8.7731,-36.6225,65.86,84,52,8.75,BR,1697176962
376,Egilsstadir,65.2653,-14.3948,35.51,93,100,24.16,IS,1697176970
377,San Jose,37.3394,-121.895,62.89,63,0,24.0,US,1697176970
378,Nizhniy Kuranakh,58.8353,125.4869,39.7,77,100,10.42,RU,1697176970
379,Taksimo,56.3444,114.8794,51.71,49,40,1.99,RU,1697176970
380,El Charco,2.4769,-78.1105,75.7,93,94,2.73,CO,1697176970
381,Olinda,-8.0089,-34.8553,78.53,83,40,9.22,BR,1697176971
382,Yaren,-0.5472,166.916,84.94,67,21,4.61,NR,1697176971
383,Zhangaözen,43.3,52.8,50.27,47,10,16.67,KZ,1697176971
384,Nova Sintra,14.8667,-24.7167,74.62,82,99,1.12,CV,1697176971
385,Yanbu,24.0891,38.0637,82.44,65,0,4.61,SA,1697176971
386,Vilyuchinsk,52.9306,158.4028,44.87,89,97,5.26,RU,1697176971
387,Kuala Terengganu,5.3302,103.1408,89.55,70,20,9.22,MY,1697176971
388,Bairnsdale,-37.8333,147.6167,56.89,69,100,12.15,AU,1697176971
389,Jinghong,21.991,100.7341,73.27,91,95,3.02,CN,1697176881
390,Ålesund,62.4723,6.1549,50.92,66,75,13.8,NO,1697176972
391,Kerikeri,-35.2268,173.9474,63.91,74,97,3.0,NZ,1697176972
392,Kisangani,0.5167,25.2,78.17,71,17,2.68,CD,1697176972
393,Middlebury (village),44.0153,-73.1673,43.93,91,0,0.0,US,1697176972
394,Muang Không,14.1167,105.85,86.23,73,56,3.11,LA,1697176972
395,Fond Parisien,18.5058,-71.9767,82.36,86,97,4.14,HT,1697176972
396,Isangel,-19.55,169.2667,74.55,83,99,10.89,VU,1697176972
397,Constitución,-35.3333,-72.4167,52.41,69,2,9.31,CL,1697176857
398,Pinotepa Nacional,16.3167,-98.0167,74.07,97,80,3.15,MX,1697176973
399,Jirja,26.3383,31.8916,75.42,41,0,6.91,EG,1697176973
400,San Luis de la Loma,17.2706,-100.8939,77.09,89,24,4.09,MX,1697176973
401,Broken Hill,-31.95,141.4333,69.82,31,0,12.21,AU,1697176678
402,São Vicente,-23.9631,-46.3919,71.28,26,100,1.01,BR,1697176973
403,Nytva,57.9404,55.334,44.49,90,100,14.65,RU,1697176973
404,Ebon,4.582,168.6964,84.22,70,96,2.26,MH,1697176973
405,Flin Flon,54.7682,-101.865,43.72,84,75,2.91,CA,1697176973
406,Port Shepstone,-30.7414,30.455,67.06,65,0,4.59,ZA,1697176973
407,Mollendo,-17.0231,-72.0147,63.32,89,50,7.36,PE,1697176882
408,River Cess,5.46,-9.5828,76.3,91,52,3.09,LR,1697176974
409,Sechura,-5.5569,-80.8222,67.28,80,36,10.13,PE,1697176974
410,Boguchany,58.3814,97.4531,41.86,71,100,5.99,RU,1697176974
411,Tomohon,1.3346,124.8392,86.94,51,98,2.51,ID,1697176974
412,Holualoa,19.6228,-155.9522,73.78,88,23,4.0,US,1697176877
413,Kranuan,16.7067,103.0788,85.75,66,62,6.82,TH,1697176974
414,El Dovio,4.5079,-76.2362,61.63,96,63,2.01,CO,1697176974
415,Zaozërsk,69.4005,32.4476,36.43,78,100,10.45,RU,1697176974
416,Soyo,-6.1349,12.3689,77.5,84,82,7.47,AO,1697176974
417,Korla,41.7597,86.1469,71.42,26,0,6.78,CN,1697176975
418,Ennis,52.8436,-8.9864,48.13,100,75,8.05,IE,1697176975
419,Bingöl,38.8847,40.4939,63.23,37,0,3.2,TR,1697176975
420,La Ronge,55.1001,-105.2842,46.62,93,100,2.3,CA,1697176975
421,Santa Marta de Ortigueira,43.6833,-7.85,65.46,87,100,20.74,ES,1697176839
422,Jinzhou,41.1078,121.1417,69.67,47,99,10.25,CN,1697176975
423,Bhūm,18.4667,75.6667,88.77,29,0,10.89,IN,1697176975
424,Fort Campbell North,36.6543,-87.4606,65.75,81,75,3.0,US,1697176976
425,Shaydon,40.6747,70.346,46.81,40,100,12.26,TJ,1697176976
426,Gereida,11.2811,25.1414,83.68,50,15,3.56,SD,1697176976
427,Natal,-5.795,-35.2094,79.02,83,40,3.44,BR,1697176728
428,Nemuro,43.3236,145.575,60.15,68,0,9.19,JP,1697176976
429,Yelan’-Koleno,51.1523,41.2306,50.5,60,100,15.48,RU,1697176976
430,Kismayo,-0.3582,42.5454,82.24,71,35,9.55,SO,1697176976
431,Thinadhoo,0.5333,72.9333,81.55,72,34,12.48,MV,1697176977
432,Vorkuta,67.5,64.0,33.82,62,100,12.3,RU,1697176977
433,Crane,31.3974,-102.3501,73.08,49,0,8.68,US,1697176977
434,Tadjourah,12.0,42.5,82.89,56,40,4.74,DJ,1697176977
435,Pokhara,28.2333,83.9833,74.26,78,12,3.89,NP,1697176977
436,Shubarshi,48.5872,57.1869,48.76,53,8,14.72,KZ,1697176977
437,Sulphur,30.2366,-93.3774,62.58,97,100,0.0,US,1697176807
438,Kalmunai,7.4167,81.8167,82.92,73,98,5.41,LK,1697176977
439,Road Town,18.4167,-64.6167,83.59,71,82,9.82,VG,1697176808
440,Huaiyuan Chengguanzhen,32.9589,117.1657,76.64,36,91,3.62,CN,1697176978
441,Xai-Xai,-25.0519,33.6442,79.47,62,95,8.72,MZ,1697176978
442,Sisimiut,66.9395,-53.6735,31.93,75,100,10.09,GL,1697176978
443,Parma,44.8027,10.329,64.62,82,20,2.3,IT,1697176957
444,Mkushi,-13.6202,29.3939,83.57,26,58,7.27,ZM,1697176978
445,Laibin,23.7,109.2667,77.52,61,79,7.14,CN,1697176866
446,Cambria,35.5641,-121.0808,64.62,59,84,4.14,US,1697176978
447,Yarmouth,41.7057,-70.2286,60.96,83,100,18.01,US,1697176978
448,Ljusdal,61.8288,16.0913,37.35,80,85,3.8,SE,1697176979
449,Northam,51.0333,-4.2167,65.39,97,100,25.57,GB,1697176979
450,Revda,56.801,59.9303,36.36,91,100,15.17,RU,1697176979
451,Umba,66.6871,34.3429,38.39,65,100,11.99,RU,1697176979
452,Taoudenni,22.6783,-3.9836,78.67,21,0,12.03,ML,1697176979
453,Sept-Îles,50.2001,-66.3821,48.72,97,100,6.91,CA,1697176805
454,Escárcega,18.6089,-90.7454,77.7,98,58,2.33,MX,1697176922
455,Celestún,20.8667,-90.4,82.49,88,47,7.16,MX,1697176979
456,Tsengel,49.4783,100.8894,56.59,32,5,5.55,MN,1697176980
457,Oamaru,-45.0784,170.9801,60.96,60,100,12.17,NZ,1697176980
458,Ben Lomond,37.0891,-122.0863,62.08,78,93,1.01,US,1697176980
459,Toamasina,-18.1667,49.3833,82.4,65,40,6.91,MG,1697176980
460,Kelso,46.1468,-122.9084,64.09,76,0,0.0,US,1697176980
461,Sanguéya,10.7,-14.3667,75.02,95,100,2.39,GN,1697176980
462,Shahrud,36.4182,54.9763,56.14,46,1,3.0,IR,1697176980
463,Superior,46.7208,-92.1041,52.7,74,40,16.11,US,1697176708
464,Cambridge,43.3601,-80.3127,44.89,94,100,2.3,CA,1697176732
465,Zhigalovo,54.8097,105.1578,59.07,48,100,3.0,RU,1697176981
466,Aldinga Beach,-35.2793,138.4604,66.25,80,61,11.59,AU,1697176841
467,Zheleznodorozhnyy,55.7503,38.0042,48.42,96,51,13.0,RU,1697176981
468,Saquarema,-22.92,-42.5103,72.7,96,100,8.19,BR,1697176959
469,Sibu,2.3,111.8167,89.91,70,20,3.44,MY,1697176981
470,Vanimo,-2.6741,141.3028,84.92,72,62,8.43,PG,1697176982
471,Papao,-17.75,-149.55,80.28,83,10,19.08,PF,1697176982
472,Palma di Montechiaro,37.1926,13.765,71.96,57,0,4.29,IT,1697176982
473,Les Anglais,18.3054,-74.2197,80.1,78,93,4.41,HT,1697176982
474,Santa Cruz de la Sierra,-17.8,-63.1667,72.86,43,20,14.97,BO,1697176818
475,Sastobe,42.55,70.0,44.49,53,85,27.69,KZ,1697176982
476,Rome,43.2128,-75.4557,43.92,90,0,0.0,US,1697176926
477,Taro,-8.3862,115.28,80.6,55,86,3.89,ID,1697176982
478,Yeniseysk,58.4497,92.1703,42.94,70,100,5.01,RU,1697176983
479,Goondiwindi,-28.55,150.3167,78.13,15,0,15.97,AU,1697176983
480,San Mariano,7.5,126.0,82.27,80,100,3.49,PH,1697176983
481,Umluj,25.0213,37.2685,85.41,45,1,11.99,SA,1697176939
482,Qujing,25.4833,103.7833,57.56,92,99,3.65,CN,1697176983
483,Mastic Beach,40.7668,-72.8521,59.99,88,0,7.0,US,1697176830
484,Balykchy,42.4557,76.1861,59.22,55,100,9.19,KG,1697176983
485,Sawankhalok,17.316,99.8319,85.89,74,20,4.61,TH,1697176983
486,Vernon,50.2581,-119.2691,49.53,79,2,6.91,CA,1697176820
487,Villa Elisa,-25.3667,-57.6167,60.04,72,75,13.8,PY,1697176984
488,Port Augusta,-32.5,137.7667,68.02,49,12,14.67,AU,1697176984
489,Nyrob,60.733,56.7202,36.37,76,100,15.01,RU,1697176984
490,Sona,45.4388,10.8255,65.32,88,75,1.14,IT,1697176984
491,Ghadames,30.1337,9.5007,69.62,41,0,10.92,LY,1697176984
492,Juneau,58.3019,-134.4197,51.42,100,100,6.31,US,1697176811
493,Kuragino,53.8975,92.6725,44.76,84,100,13.04,RU,1697176984
494,Tutong,4.8,114.65,84.29,78,67,6.98,BN,1697176984
495,Kolonia Town,6.964,158.206,82.15,75,100,5.03,FM,1697176985
496,Cambarão,27.1865,56.2808,94.98,49,0,9.22,IR,1697176985
497,Aral,40.5156,81.2636,73.65,15,4,5.88,CN,1697176985
498,Cabo San Lucas,22.8909,-109.9124,79.75,72,0,7.0,MX,1697176931
499,Zaysan,47.4667,84.8667,66.49,30,83,7.65,KZ,1697176986
500,Mirpur Sakro,24.5474,67.6277,89.33,48,0,13.58,PK,1697176986
501,Ak-Suu,42.4995,78.527,63.25,30,99,7.58,KG,1697176986
502,El Calafate,-50.3408,-72.2768,39.18,79,4,7.49,AR,1697176986
503,Oranjemund,-28.55,16.4333,59.59,81,42,14.23,NA,1697176910
504,Anshun,26.25,105.9333,54.5,88,100,6.38,CN,1697176986
505,Monte Patria,-30.6919,-70.9467,64.45,35,0,1.21,CL,1697176986
506,Vilyuysk,63.7553,121.6247,28.18,82,95,11.01,RU,1697176987
507,Gunjur,13.2019,-16.7339,78.87,100,73,0.0,GM,1697176987
508,Aroma,15.8167,36.1333,87.91,43,1,11.21,SD,1697176987
509,Obo,5.3998,26.4869,74.53,88,70,1.03,CF,1697176987
510,Madhipura,25.9167,86.7833,88.21,45,0,4.83,IN,1697176987
511,Sinop Province,41.7711,34.8709,48.63,40,0,2.35,TR,1697176987
512,Distrikt Paramaribo,5.8667,-55.1667,80.91,86,12,1.99,SR,1697176987
513,Tôlanaro,-25.0319,46.9987,73.47,88,75,20.71,MG,1697176987
514,Seneca,41.1167,-83.1166,56.46,93,15,8.08,US,1697176988
515,Tagāw-Bāy,35.6994,66.0616,46.53,87,94,3.6,AF,1697176988
516,Aketi,2.7388,23.7833,73.83,95,51,0.96,CD,1697176988
517,Mil’kovo,55.6078,37.7956,48.42,78,44,15.59,RU,1697176988
518,Canutama,-6.5339,-64.3831,77.23,64,53,1.23,BR,1697176988
519,Finley,46.154,-119.0339,54.03,86,0,1.01,US,1697176988
520,Luganville,-15.5333,167.1667,78.73,74,74,10.71,VU,1697176988
521,Tobelo,1.7284,128.0095,84.15,69,75,4.88,ID,1697176988
522,Porto-Novo,6.4965,2.6036,75.02,88,100,1.95,BJ,1697176708
523,Chumphon,10.3333,98.8333,85.37,65,93,1.7,TH,1697176989
524,Thunder Bay,48.4001,-89.3168,33.78,100,0,2.3,CA,1697176728
525,Vetluga,57.8557,45.781,46.67,75,96,14.14,RU,1697176989
526,Klaksvík,62.2266,-6.589,41.92,81,77,16.04,FO,1697176989
527,Ishigaki,24.3448,124.1572,84.33,61,20,13.8,JP,1697176989
528,Pimentel,-6.8367,-79.9342,66.49,82,0,16.11,PE,1697176989
529,Puerto Baquerizo Moreno,-0.9,-89.6,74.1,82,19,9.71,EC,1697176990
530,Tamandaré,-8.7597,-35.1047,75.33,86,22,8.03,BR,1697176990
531,Louis Trichardt,-23.0439,29.9032,82.49,29,10,2.53,ZA,1697176990
532,Viedma,-40.8135,-62.9967,42.06,81,66,6.73,AR,1697176747
533,Xucheng,20.35,110.1288,80.6,73,79,16.51,CN,1697176990
534,Dayr az Zawr,35.3359,40.1408,80.67,34,0,11.25,SY,1697176991
535,Bontang,0.1333,117.5,84.04,72,46,12.06,ID,1697176991
536,Kyren,51.6828,102.1408,63.95,37,93,5.99,RU,1697176991
537,Novska,45.3406,16.9769,58.78,83,65,3.18,HR,1697176991
538,Ivatsevichy,52.709,25.3401,45.39,89,4,5.48,BY,1697176991
539,Elliot Lake,46.3834,-82.6331,42.78,88,64,4.63,CA,1697176991
540,Rantepao,-2.9701,119.8978,80.24,60,73,3.29,ID,1697176991
541,Cockburn Town,21.4612,-71.1419,84.22,77,100,9.93,TC,1697176916
542,Metlili Chaamba,32.2667,3.6333,65.34,48,0,8.05,DZ,1697176992
543,Ponta Delgada,37.7333,-25.6667,68.18,88,20,3.44,PT,1697176822
544,Rawdon,46.0501,-73.7159,45.12,87,82,6.55,CA,1697176992
